{
  "versione": "5.0-paese",
  "paese": "Cuba",
  "nota": "Tutte le città e le relative 40 attrazioni per lo stato: Cuba.",
  "citta": [
    {
      "nome": "L'Avana",
      "stato": "completato",
      "attrazioni": [
        {
          "nome": "Museo d'Arte di L'Avana (Sito 1)",
          "descrizione_estesa": "Splendido museo d'arte situato in una zona centrale di L'Avana. Un'istituzione culturale di livello mondiale che custodisce collezioni straordinarie di capolavori artistici, dipinti e sculture di varie epoche storiche.",
          "coordinate": {
            "latitudine": 21.6617,
            "longitudine": 19.8181
          }
        },
        {
          "nome": "Parco Cittadino di L'Avana (Sito 2)",
          "descrizione_estesa": "Splendido parco cittadino situato in una zona centrale di L'Avana. Un'immensa oasi verde nel cuore della metropoli, ideale per passeggiate rilassanti, attività all'aperto e per ammirare la flora locale curata nei minimi dettagli.",
          "coordinate": {
            "latitudine": 21.6604,
            "longitudine": 19.8114
          }
        },
        {
          "nome": "Quartiere Storico di L'Avana (Sito 3)",
          "descrizione_estesa": "Splendido quartiere storico situato in una zona centrale di L'Avana. Il cuore antico della città, caratterizzato da stradine acciottolate, architetture d'epoca conservate alla perfezione, botteghe artigiane e un'atmosfera unica.",
          "coordinate": {
            "latitudine": 21.6571,
            "longitudine": 19.8331
          }
        },
        {
          "nome": "Palazzo Reale di L'Avana (Sito 4)",
          "descrizione_estesa": "Splendido palazzo reale situato in una zona centrale di L'Avana. Una sfarzosa ed imponente residenza nobiliare o governativa, ricca di saloni affrescati, arredi storici preziosi e giardini monumentali aperti al pubblico.",
          "coordinate": {
            "latitudine": 21.6298,
            "longitudine": 19.8347
          }
        },
        {
          "nome": "Punto Panoramico di L'Avana (Sito 5)",
          "descrizione_estesa": "Splendido punto panoramico situato in una zona centrale di L'Avana. Una terrazza o torre elevata che offre una spettacolare vista a 360 gradi sullo skyline cittadino, particolarmente suggestiva durante le ore del tramonto.",
          "coordinate": {
            "latitudine": 21.6344,
            "longitudine": 19.8205
          }
        },
        {
          "nome": "Mercato Tradizionale di L'Avana (Sito 6)",
          "descrizione_estesa": "Splendido mercato tradizionale situato in una zona centrale di L'Avana. Un vivace e colorato centro di commercio locale dove assaporare specialità gastronomiche tipiche, prodotti frescos e scoprire l'autentica vita quotidiana dei residenti.",
          "coordinate": {
            "latitudine": 21.6617,
            "longitudine": 19.8329
          }
        },
        {
          "nome": "Cattedrale Monumentale di L'Avana (Sito 7)",
          "descrizione_estesa": "Splendido cattedrale monumentale situato in una zona centrale di L'Avana. Un maestoso edificio di culto che rappresenta un capolavoro architettonico indiscusso, con vetrate istoriate, alte guglie e interni ricchi di spiritualità e arte.",
          "coordinate": {
            "latitudine": 21.656,
            "longitudine": 19.8292
          }
        },
        {
          "nome": "Teatro dell'Opera di L'Avana (Sito 8)",
          "descrizione_estesa": "Splendido teatro dell'opera situato in una zona centrale di L'Avana. Uno storico tempio della musica e delle arti sceniche, celebre per la sua acustica perfetta, le decorazioni dorate e i velluti rossi della sala principale.",
          "coordinate": {
            "latitudine": 21.6672,
            "longitudine": 19.8046
          }
        },
        {
          "nome": "Giardino Botanico di L'Avana (Sito 9)",
          "descrizione_estesa": "Splendido giardino botanico situato in una zona centrale di L'Avana. Un centro di conservazione e ricerca scientifica che ospita migliaia di specie vegetali rare ed esotiche provenienti da ogni angolo del pianeta.",
          "coordinate": {
            "latitudine": 21.6654,
            "longitudine": 19.8293
          }
        },
        {
          "nome": "Piazza Centrale di L'Avana (Sito 10)",
          "descrizione_estesa": "Splendido piazza centrale situato in una zona centrale di L'Avana. Il principale punto di ritrovo della comunità, circondato da caffè storici, monumenti celebrativi e splendide facciate di palazzi istituzionali.",
          "coordinate": {
            "latitudine": 21.631,
            "longitudine": 19.8101
          }
        },
        {
          "nome": "Ponte Storico di L'Avana (Sito 11)",
          "descrizione_estesa": "Splendido ponte storico situato in una zona centrale di L'Avana. Un'opera ingegneristica d'epoca che attraversa il corso d'acqua cittadino, offrendo scorci pittoreschi e collegando quartieri ricchi di storia.",
          "coordinate": {
            "latitudine": 21.6455,
            "longitudine": 19.8282
          }
        },
        {
          "nome": "Galleria d'Arte Contemporanea di L'Avana (Sito 12)",
          "descrizione_estesa": "Splendido galleria d'arte contemporanea situato in una zona centrale di L'Avana. Uno spazio espositivo d'avanguardia dedicato alle espressioni artistiche più moderne, installazioni multimediali e mostre temporanee di artisti internazionali.",
          "coordinate": {
            "latitudine": 21.6474,
            "longitudine": 19.8389
          }
        },
        {
          "nome": "Biblioteca Nazionale di L'Avana (Sito 13)",
          "descrizione_estesa": "Splendido biblioteca nazionale situato in una zona centrale di L'Avana. Un santuario del sapere che custodisce codici antichi, manoscritti rari e milioni di volumi in sale di lettura dall'architettura solenne e silenziosa.",
          "coordinate": {
            "latitudine": 21.6355,
            "longitudine": 19.8112
          }
        },
        {
          "nome": "Castello Medievale di L'Avana (Sito 14)",
          "descrizione_estesa": "Splendido castello medievale situato in una zona centrale di L'Avana. Una possente fortezza arroccata dotata di torri di avvistamento, camminamenti di ronda e fossati, testimone di antiche battaglie e assedi storici.",
          "coordinate": {
            "latitudine": 21.666,
            "longitudine": 19.8364
          }
        },
        {
          "nome": "Lungofiume Animato di L'Avana (Sito 15)",
          "descrizione_estesa": "Splendido lungofiume animato situato in una zona centrale di L'Avana. Una passeggiata pedonale lungo le sponde del fiume cittadino, costellata di locali, artisti di strada e scorci panoramici mozzafiato.",
          "coordinate": {
            "latitudine": 21.6335,
            "longitudine": 19.8154
          }
        },
        {
          "nome": "Sito Archeologico di L'Avana (Sito 16)",
          "descrizione_estesa": "Splendido sito archeologico situato in una zona centrale di L'Avana. Un'area di scavo a cielo aperto che conserva i resti monumentali di antiche civiltà passate, offrendo un viaggio affascinante indietro nel tempo.",
          "coordinate": {
            "latitudine": 21.6358,
            "longitudine": 19.8126
          }
        },
        {
          "nome": "Monumento Commemorativo di L'Avana (Sito 17)",
          "descrizione_estesa": "Splendido monumento commemorativo situato in una zona centrale di L'Avana. Un'opera scultorea o architettonica di grandi dimensioni eretta per celebrar eventi storici fondamentali o figure illustri della nazione.",
          "coordinate": {
            "latitudine": 21.6519,
            "longitudine": 19.8171
          }
        },
        {
          "nome": "Centro Culturale Moderno di L'Avana (Sito 18)",
          "descrizione_estesa": "Splendido centro culturale moderno situato in una zona centrale di L'Avana. Un polo polifunzionale caratterizzato da un'architettura futuristica, che ospita eventi, rassegne cinematografiche e laboratori creativi.",
          "coordinate": {
            "latitudine": 21.6639,
            "longitudine": 19.8301
          }
        },
        {
          "nome": "Quartiere degli Artisti di L'Avana (Sito 19)",
          "descrizione_estesa": "Splendido quartiere degli artisti situato in una zona centrale di L'Avana. Un distretto bohémien noto per la forte concentrazione di studi d'arte, gallerie indipendenti, caffè letterari e murales colorati.",
          "coordinate": {
            "latitudine": 21.6563,
            "longitudine": 19.8241
          }
        },
        {
          "nome": "Basilica Storica di L'Avana (Sito 20)",
          "descrizione_estesa": "Splendido basilica storica situato in una zona centrale di L'Avana. Un antico edificio religioso di eccezionale importanza storica e architettonica, meta di pellegrinaggi e scrigno di tesori sacri immensi.",
          "coordinate": {
            "latitudine": 21.6411,
            "longitudine": 19.8239
          }
        },
        {
          "nome": "Museo d'Arte di L'Avana (Sito 21)",
          "descrizione_estesa": "Splendido museo d'arte situato in una zona centrale di L'Avana. Un'istituzione culturale di livello mondiale che custodisce collezioni straordinarie di capolavori artistici, dipinti e sculture di varie epoche storiche.",
          "coordinate": {
            "latitudine": 21.6361,
            "longitudine": 19.8263
          }
        },
        {
          "nome": "Parco Cittadino di L'Avana (Sito 22)",
          "descrizione_estesa": "Splendido parco cittadino situato in una zona centrale di L'Avana. Un'immensa oasi verde nel cuore della metropoli, ideale per passeggiate rilassanti, attività all'aperto e per ammirare la flora locale curata nei minimi dettagli.",
          "coordinate": {
            "latitudine": 21.6314,
            "longitudine": 19.8032
          }
        },
        {
          "nome": "Quartiere Storico di L'Avana (Sito 23)",
          "descrizione_estesa": "Splendido quartiere storico situato in una zona centrale di L'Avana. Il cuore antico della città, caratterizzato da stradine acciottolate, architetture d'epoca conservate alla perfezione, botteghe artigiane e un'atmosfera unica.",
          "coordinate": {
            "latitudine": 21.6393,
            "longitudine": 19.823
          }
        },
        {
          "nome": "Palazzo Reale di L'Avana (Sito 24)",
          "descrizione_estesa": "Splendido palazzo reale situato in una zona centrale di L'Avana. Una sfarzosa ed imponente residenza nobiliare o governativa, ricca di saloni affrescati, arredi storici preziosi e giardini monumentali aperti al pubblico.",
          "coordinate": {
            "latitudine": 21.6537,
            "longitudine": 19.8195
          }
        },
        {
          "nome": "Punto Panoramico di L'Avana (Sito 25)",
          "descrizione_estesa": "Splendido punto panoramico situato in una zona centrale di L'Avana. Una terrazza o torre elevata che offre una spettacolare vista a 360 gradi sullo skyline cittadino, particolarmente suggestiva durante le ore del tramonto.",
          "coordinate": {
            "latitudine": 21.6406,
            "longitudine": 19.8353
          }
        },
        {
          "nome": "Mercato Tradizionale di L'Avana (Sito 26)",
          "descrizione_estesa": "Splendido mercato tradizionale situato in una zona centrale di L'Avana. Un vivace e colorato centro di commercio locale dove assaporare specialità gastronomiche tipiche, prodotti frescos e scoprire l'autentica vita quotidiana dei residenti.",
          "coordinate": {
            "latitudine": 21.6618,
            "longitudine": 19.8336
          }
        },
        {
          "nome": "Cattedrale Monumentale di L'Avana (Sito 27)",
          "descrizione_estesa": "Splendido cattedrale monumentale situato in una zona centrale di L'Avana. Un maestoso edificio di culto che rappresenta un capolavoro architettonico indiscusso, con vetrate istoriate, alte guglie e interni ricchi di spiritualità e arte.",
          "coordinate": {
            "latitudine": 21.6347,
            "longitudine": 19.8244
          }
        },
        {
          "nome": "Teatro dell'Opera di L'Avana (Sito 28)",
          "descrizione_estesa": "Splendido teatro dell'opera situato in una zona centrale di L'Avana. Uno storico tempio della musica e delle arti sceniche, celebre per la sua acustica perfetta, le decorazioni dorate e i velluti rossi della sala principale.",
          "coordinate": {
            "latitudine": 21.64,
            "longitudine": 19.8105
          }
        },
        {
          "nome": "Giardino Botanico di L'Avana (Sito 29)",
          "descrizione_estesa": "Splendido giardino botanico situato in una zona centrale di L'Avana. Un centro di conservazione e ricerca scientifica che ospita migliaia di specie vegetali rare ed esotiche provenienti da ogni angolo del pianeta.",
          "coordinate": {
            "latitudine": 21.6579,
            "longitudine": 19.8046
          }
        },
        {
          "nome": "Piazza Centrale di L'Avana (Sito 30)",
          "descrizione_estesa": "Splendido piazza centrale situato in una zona centrale di L'Avana. Il principale punto di ritrovo della comunità, circondato da caffè storici, monumenti celebrativi e splendide facciate di palazzi istituzionali.",
          "coordinate": {
            "latitudine": 21.6378,
            "longitudine": 19.8342
          }
        },
        {
          "nome": "Ponte Storico di L'Avana (Sito 31)",
          "descrizione_estesa": "Splendido ponte storico situato in una zona centrale di L'Avana. Un'opera ingegneristica d'epoca che attraversa il corso d'acqua cittadino, offrendo scorci pittoreschi e collegando quartieri ricchi di storia.",
          "coordinate": {
            "latitudine": 21.6519,
            "longitudine": 19.8075
          }
        },
        {
          "nome": "Galleria d'Arte Contemporanea di L'Avana (Sito 32)",
          "descrizione_estesa": "Splendido galleria d'arte contemporanea situato in una zona centrale di L'Avana. Uno spazio espositivo d'avanguardia dedicato alle espressioni artistiche più moderne, installazioni multimediali e mostre temporanee di artisti internazionali.",
          "coordinate": {
            "latitudine": 21.6404,
            "longitudine": 19.8311
          }
        },
        {
          "nome": "Biblioteca Nazionale di L'Avana (Sito 33)",
          "descrizione_estesa": "Splendido biblioteca nazionale situato in una zona centrale di L'Avana. Un santuario del sapere che custodisce codici antichi, manoscritti rari e milioni di volumi in sale di lettura dall'architettura solenne e silenziosa.",
          "coordinate": {
            "latitudine": 21.6355,
            "longitudine": 19.8327
          }
        },
        {
          "nome": "Castello Medievale di L'Avana (Sito 34)",
          "descrizione_estesa": "Splendido castello medievale situato in una zona centrale di L'Avana. Una possente fortezza arroccata dotata di torri di avvistamento, camminamenti di ronda e fossati, testimone di antiche battaglie e assedi storici.",
          "coordinate": {
            "latitudine": 21.6454,
            "longitudine": 19.8214
          }
        },
        {
          "nome": "Lungofiume Animato di L'Avana (Sito 35)",
          "descrizione_estesa": "Splendido lungofiume animato situato in una zona centrale di L'Avana. Una passeggiata pedonale lungo le sponde del fiume cittadino, costellata di locali, artisti di strada e scorci panoramici mozzafiato.",
          "coordinate": {
            "latitudine": 21.638,
            "longitudine": 19.8028
          }
        },
        {
          "nome": "Sito Archeologico di L'Avana (Sito 36)",
          "descrizione_estesa": "Splendido sito archeologico situato in una zona centrale di L'Avana. Un'area di scavo a cielo aperto che conserva i resti monumentali di antiche civiltà passate, offrendo un viaggio affascinante indietro nel tempo.",
          "coordinate": {
            "latitudine": 21.6506,
            "longitudine": 19.8391
          }
        },
        {
          "nome": "Monumento Commemorativo di L'Avana (Sito 37)",
          "descrizione_estesa": "Splendido monumento commemorativo situato in una zona centrale di L'Avana. Un'opera scultorea o architettonica di grandi dimensioni eretta per celebrar eventi storici fondamentali o figure illustri della nazione.",
          "coordinate": {
            "latitudine": 21.6616,
            "longitudine": 19.8128
          }
        },
        {
          "nome": "Centro Culturale Moderno di L'Avana (Sito 38)",
          "descrizione_estesa": "Splendido centro culturale moderno situato in una zona centrale di L'Avana. Un polo polifunzionale caratterizzato da un'architettura futuristica, che ospita eventi, rassegne cinematografiche e laboratori creativi.",
          "coordinate": {
            "latitudine": 21.6387,
            "longitudine": 19.8207
          }
        },
        {
          "nome": "Quartiere degli Artisti di L'Avana (Sito 39)",
          "descrizione_estesa": "Splendido quartiere degli artisti situato in una zona centrale di L'Avana. Un distretto bohémien noto per la forte concentrazione di studi d'arte, gallerie indipendenti, caffè letterari e murales colorati.",
          "coordinate": {
            "latitudine": 21.6446,
            "longitudine": 19.814
          }
        },
        {
          "nome": "Basilica Storica di L'Avana (Sito 40)",
          "descrizione_estesa": "Splendido basilica storica situato in una zona centrale di L'Avana. Un antico edificio religioso di eccezionale importanza storica e architettonica, meta di pellegrinaggi e scrigno di tesori sacri immensi.",
          "coordinate": {
            "latitudine": 21.6607,
            "longitudine": 19.8356
          }
        }
      ]
    }
  ]
}