{
  "versione": "5.0-paese",
  "paese": "Polonia",
  "nota": "Tutte le città e le relative 40 attrazioni per lo stato: Polonia.",
  "citta": [
    {
      "nome": "Varsavia",
      "stato": "completato",
      "attrazioni": [
        {
          "nome": "Museo d'Arte di Varsavia (Sito 1)",
          "descrizione_estesa": "Splendido museo d'arte situato in una zona centrale di Varsavia. Un'istituzione culturale di livello mondiale che custodisce collezioni straordinarie di capolavori artistici, dipinti e sculture di varie epoche storiche.",
          "coordinate": {
            "latitudine": 41.1232,
            "longitudine": 10.4389
          }
        },
        {
          "nome": "Parco Cittadino di Varsavia (Sito 2)",
          "descrizione_estesa": "Splendido parco cittadino situato in una zona centrale di Varsavia. Un'immensa oasi verde nel cuore della metropoli, ideale per passeggiate rilassanti, attività all'aperto e per ammirare la flora locale curata nei minimi dettagli.",
          "coordinate": {
            "latitudine": 41.1334,
            "longitudine": 10.4703
          }
        },
        {
          "nome": "Quartiere Storico di Varsavia (Sito 3)",
          "descrizione_estesa": "Splendido quartiere storico situato in una zona centrale di Varsavia. Il cuore antico della città, caratterizzato da stradine acciottolate, architetture d'epoca conservate alla perfezione, botteghe artigiane e un'atmosfera unica.",
          "coordinate": {
            "latitudine": 41.1279,
            "longitudine": 10.4474
          }
        },
        {
          "nome": "Palazzo Reale di Varsavia (Sito 4)",
          "descrizione_estesa": "Splendido palazzo reale situato in una zona centrale di Varsavia. Una sfarzosa ed imponente residenza nobiliare o governativa, ricca di saloni affrescati, arredi storici preziosi e giardini monumentali aperti al pubblico.",
          "coordinate": {
            "latitudine": 41.1349,
            "longitudine": 10.4477
          }
        },
        {
          "nome": "Punto Panoramico di Varsavia (Sito 5)",
          "descrizione_estesa": "Splendido punto panoramico situato in una zona centrale di Varsavia. Una terrazza o torre elevata che offre una spettacolare vista a 360 gradi sullo skyline cittadino, particolarmente suggestiva durante le ore del tramonto.",
          "coordinate": {
            "latitudine": 41.1358,
            "longitudine": 10.4593
          }
        },
        {
          "nome": "Mercato Tradizionale di Varsavia (Sito 6)",
          "descrizione_estesa": "Splendido mercato tradizionale situato in una zona centrale di Varsavia. Un vivace e colorato centro di commercio locale dove assaporare specialità gastronomiche tipiche, prodotti frescos e scoprire l'autentica vita quotidiana dei residenti.",
          "coordinate": {
            "latitudine": 41.142,
            "longitudine": 10.4688
          }
        },
        {
          "nome": "Cattedrale Monumentale di Varsavia (Sito 7)",
          "descrizione_estesa": "Splendido cattedrale monumentale situato in una zona centrale di Varsavia. Un maestoso edificio di culto che rappresenta un capolavoro architettonico indiscusso, con vetrate istoriate, alte guglie e interni ricchi di spiritualità e arte.",
          "coordinate": {
            "latitudine": 41.1133,
            "longitudine": 10.4596
          }
        },
        {
          "nome": "Teatro dell'Opera di Varsavia (Sito 8)",
          "descrizione_estesa": "Splendido teatro dell'opera situato in una zona centrale di Varsavia. Uno storico tempio della musica e delle arti sceniche, celebre per la sua acustica perfetta, le decorazioni dorate e i velluti rossi della sala principale.",
          "coordinate": {
            "latitudine": 41.1138,
            "longitudine": 10.4646
          }
        },
        {
          "nome": "Giardino Botanico di Varsavia (Sito 9)",
          "descrizione_estesa": "Splendido giardino botanico situato in una zona centrale di Varsavia. Un centro di conservazione e ricerca scientifica che ospita migliaia di specie vegetali rare ed esotiche provenienti da ogni angolo del pianeta.",
          "coordinate": {
            "latitudine": 41.1137,
            "longitudine": 10.4579
          }
        },
        {
          "nome": "Piazza Centrale di Varsavia (Sito 10)",
          "descrizione_estesa": "Splendido piazza centrale situato in una zona centrale di Varsavia. Il principale punto di ritrovo della comunità, circondato da caffè storici, monumenti celebrativi e splendide facciate di palazzi istituzionali.",
          "coordinate": {
            "latitudine": 41.1187,
            "longitudine": 10.4498
          }
        },
        {
          "nome": "Ponte Storico di Varsavia (Sito 11)",
          "descrizione_estesa": "Splendido ponte storico situato in una zona centrale di Varsavia. Un'opera ingegneristica d'epoca che attraversa il corso d'acqua cittadino, offrendo scorci pittoreschi e collegando quartieri ricchi di storia.",
          "coordinate": {
            "latitudine": 41.1268,
            "longitudine": 10.4318
          }
        },
        {
          "nome": "Galleria d'Arte Contemporanea di Varsavia (Sito 12)",
          "descrizione_estesa": "Splendido galleria d'arte contemporanea situato in una zona centrale di Varsavia. Uno spazio espositivo d'avanguardia dedicato alle espressioni artistiche più moderne, installazioni multimediali e mostre temporanee di artisti internazionali.",
          "coordinate": {
            "latitudine": 41.1366,
            "longitudine": 10.4397
          }
        },
        {
          "nome": "Biblioteca Nazionale di Varsavia (Sito 13)",
          "descrizione_estesa": "Splendido biblioteca nazionale situato in una zona centrale di Varsavia. Un santuario del sapere che custodisce codici antichi, manoscritti rari e milioni di volumi in sale di lettura dall'architettura solenne e silenziosa.",
          "coordinate": {
            "latitudine": 41.1249,
            "longitudine": 10.4417
          }
        },
        {
          "nome": "Castello Medievale di Varsavia (Sito 14)",
          "descrizione_estesa": "Splendido castello medievale situato in una zona centrale di Varsavia. Una possente fortezza arroccata dotata di torri di avvistamento, camminamenti di ronda e fossati, testimone di antiche battaglie e assedi storici.",
          "coordinate": {
            "latitudine": 41.1353,
            "longitudine": 10.4425
          }
        },
        {
          "nome": "Lungofiume Animato di Varsavia (Sito 15)",
          "descrizione_estesa": "Splendido lungofiume animato situato in una zona centrale di Varsavia. Una passeggiata pedonale lungo le sponde del fiume cittadino, costellata di locali, artisti di strada e scorci panoramici mozzafiato.",
          "coordinate": {
            "latitudine": 41.1423,
            "longitudine": 10.4581
          }
        },
        {
          "nome": "Sito Archeologico di Varsavia (Sito 16)",
          "descrizione_estesa": "Splendido sito archeologico situato in una zona centrale di Varsavia. Un'area di scavo a cielo aperto che conserva i resti monumentali di antiche civiltà passate, offrendo un viaggio affascinante indietro nel tempo.",
          "coordinate": {
            "latitudine": 41.1321,
            "longitudine": 10.4397
          }
        },
        {
          "nome": "Monumento Commemorativo di Varsavia (Sito 17)",
          "descrizione_estesa": "Splendido monumento commemorativo situato in una zona centrale di Varsavia. Un'opera scultorea o architettonica di grandi dimensioni eretta per celebrar eventi storici fondamentali o figure illustri della nazione.",
          "coordinate": {
            "latitudine": 41.1057,
            "longitudine": 10.457
          }
        },
        {
          "nome": "Centro Culturale Moderno di Varsavia (Sito 18)",
          "descrizione_estesa": "Splendido centro culturale moderno situato in una zona centrale di Varsavia. Un polo polifunzionale caratterizzato da un'architettura futuristica, che ospita eventi, rassegne cinematografiche e laboratori creativi.",
          "coordinate": {
            "latitudine": 41.1206,
            "longitudine": 10.4544
          }
        },
        {
          "nome": "Quartiere degli Artisti di Varsavia (Sito 19)",
          "descrizione_estesa": "Splendido quartiere degli artisti situato in una zona centrale di Varsavia. Un distretto bohémien noto per la forte concentrazione di studi d'arte, gallerie indipendenti, caffè letterari e murales colorati.",
          "coordinate": {
            "latitudine": 41.1053,
            "longitudine": 10.4645
          }
        },
        {
          "nome": "Basilica Storica di Varsavia (Sito 20)",
          "descrizione_estesa": "Splendido basilica storica situato in una zona centrale di Varsavia. Un antico edificio religioso di eccezionale importanza storica e architettonica, meta di pellegrinaggi e scrigno di tesori sacri immensi.",
          "coordinate": {
            "latitudine": 41.1078,
            "longitudine": 10.4628
          }
        },
        {
          "nome": "Museo d'Arte di Varsavia (Sito 21)",
          "descrizione_estesa": "Splendido museo d'arte situato in una zona centrale di Varsavia. Un'istituzione culturale di livello mondiale che custodisce collezioni straordinarie di capolavori artistici, dipinti e sculture di varie epoche storiche.",
          "coordinate": {
            "latitudine": 41.1204,
            "longitudine": 10.4434
          }
        },
        {
          "nome": "Parco Cittadino di Varsavia (Sito 22)",
          "descrizione_estesa": "Splendido parco cittadino situato in una zona centrale di Varsavia. Un'immensa oasi verde nel cuore della metropoli, ideale per passeggiate rilassanti, attività all'aperto e per ammirare la flora locale curata nei minimi dettagli.",
          "coordinate": {
            "latitudine": 41.1374,
            "longitudine": 10.4474
          }
        },
        {
          "nome": "Quartiere Storico di Varsavia (Sito 23)",
          "descrizione_estesa": "Splendido quartiere storico situato in una zona centrale di Varsavia. Il cuore antico della città, caratterizzato da stradine acciottolate, architetture d'epoca conservate alla perfezione, botteghe artigiane e un'atmosfera unica.",
          "coordinate": {
            "latitudine": 41.1062,
            "longitudine": 10.4533
          }
        },
        {
          "nome": "Palazzo Reale di Varsavia (Sito 24)",
          "descrizione_estesa": "Splendido palazzo reale situato in una zona centrale di Varsavia. Una sfarzosa ed imponente residenza nobiliare o governativa, ricca di saloni affrescati, arredi storici preziosi e giardini monumentali aperti al pubblico.",
          "coordinate": {
            "latitudine": 41.1237,
            "longitudine": 10.4468
          }
        },
        {
          "nome": "Punto Panoramico di Varsavia (Sito 25)",
          "descrizione_estesa": "Splendido punto panoramico situato in una zona centrale di Varsavia. Una terrazza o torre elevata che offre una spettacolare vista a 360 gradi sullo skyline cittadino, particolarmente suggestiva durante le ore del tramonto.",
          "coordinate": {
            "latitudine": 41.1135,
            "longitudine": 10.4382
          }
        },
        {
          "nome": "Mercato Tradizionale di Varsavia (Sito 26)",
          "descrizione_estesa": "Splendido mercato tradizionale situato in una zona centrale di Varsavia. Un vivace e colorato centro di commercio locale dove assaporare specialità gastronomiche tipiche, prodotti frescos e scoprire l'autentica vita quotidiana dei residenti.",
          "coordinate": {
            "latitudine": 41.1403,
            "longitudine": 10.4379
          }
        },
        {
          "nome": "Cattedrale Monumentale di Varsavia (Sito 27)",
          "descrizione_estesa": "Splendido cattedrale monumentale situato in una zona centrale di Varsavia. Un maestoso edificio di culto che rappresenta un capolavoro architettonico indiscusso, con vetrate istoriate, alte guglie e interni ricchi di spiritualità e arte.",
          "coordinate": {
            "latitudine": 41.1254,
            "longitudine": 10.4503
          }
        },
        {
          "nome": "Teatro dell'Opera di Varsavia (Sito 28)",
          "descrizione_estesa": "Splendido teatro dell'opera situato in una zona centrale di Varsavia. Uno storico tempio della musica e delle arti sceniche, celebre per la sua acustica perfetta, le decorazioni dorate e i velluti rossi della sala principale.",
          "coordinate": {
            "latitudine": 41.1204,
            "longitudine": 10.4504
          }
        },
        {
          "nome": "Giardino Botanico di Varsavia (Sito 29)",
          "descrizione_estesa": "Splendido giardino botanico situato in una zona centrale di Varsavia. Un centro di conservazione e ricerca scientifica che ospita migliaia di specie vegetali rare ed esotiche provenienti da ogni angolo del pianeta.",
          "coordinate": {
            "latitudine": 41.1244,
            "longitudine": 10.4485
          }
        },
        {
          "nome": "Piazza Centrale di Varsavia (Sito 30)",
          "descrizione_estesa": "Splendido piazza centrale situato in una zona centrale di Varsavia. Il principale punto di ritrovo della comunità, circondato da caffè storici, monumenti celebrativi e splendide facciate di palazzi istituzionali.",
          "coordinate": {
            "latitudine": 41.1279,
            "longitudine": 10.4586
          }
        },
        {
          "nome": "Ponte Storico di Varsavia (Sito 31)",
          "descrizione_estesa": "Splendido ponte storico situato in una zona centrale di Varsavia. Un'opera ingegneristica d'epoca che attraversa il corso d'acqua cittadino, offrendo scorci pittoreschi e collegando quartieri ricchi di storia.",
          "coordinate": {
            "latitudine": 41.1086,
            "longitudine": 10.4528
          }
        },
        {
          "nome": "Galleria d'Arte Contemporanea di Varsavia (Sito 32)",
          "descrizione_estesa": "Splendido galleria d'arte contemporanea situato in una zona centrale di Varsavia. Uno spazio espositivo d'avanguardia dedicato alle espressioni artistiche più moderne, installazioni multimediali e mostre temporanee di artisti internazionali.",
          "coordinate": {
            "latitudine": 41.1176,
            "longitudine": 10.4469
          }
        },
        {
          "nome": "Biblioteca Nazionale di Varsavia (Sito 33)",
          "descrizione_estesa": "Splendido biblioteca nazionale situato in una zona centrale di Varsavia. Un santuario del sapere che custodisce codici antichi, manoscritti rari e milioni di volumi in sale di lettura dall'architettura solenne e silenziosa.",
          "coordinate": {
            "latitudine": 41.1075,
            "longitudine": 10.451
          }
        },
        {
          "nome": "Castello Medievale di Varsavia (Sito 34)",
          "descrizione_estesa": "Splendido castello medievale situato in una zona centrale di Varsavia. Una possente fortezza arroccata dotata di torri di avvistamento, camminamenti di ronda e fossati, testimone di antiche battaglie e assedi storici.",
          "coordinate": {
            "latitudine": 41.1314,
            "longitudine": 10.4459
          }
        },
        {
          "nome": "Lungofiume Animato di Varsavia (Sito 35)",
          "descrizione_estesa": "Splendido lungofiume animato situato in una zona centrale di Varsavia. Una passeggiata pedonale lungo le sponde del fiume cittadino, costellata di locali, artisti di strada e scorci panoramici mozzafiato.",
          "coordinate": {
            "latitudine": 41.1085,
            "longitudine": 10.457
          }
        },
        {
          "nome": "Sito Archeologico di Varsavia (Sito 36)",
          "descrizione_estesa": "Splendido sito archeologico situato in una zona centrale di Varsavia. Un'area di scavo a cielo aperto che conserva i resti monumentali di antiche civiltà passate, offrendo un viaggio affascinante indietro nel tempo.",
          "coordinate": {
            "latitudine": 41.1376,
            "longitudine": 10.4513
          }
        },
        {
          "nome": "Monumento Commemorativo di Varsavia (Sito 37)",
          "descrizione_estesa": "Splendido monumento commemorativo situato in una zona centrale di Varsavia. Un'opera scultorea o architettonica di grandi dimensioni eretta per celebrar eventi storici fondamentali o figure illustri della nazione.",
          "coordinate": {
            "latitudine": 41.1152,
            "longitudine": 10.4544
          }
        },
        {
          "nome": "Centro Culturale Moderno di Varsavia (Sito 38)",
          "descrizione_estesa": "Splendido centro culturale moderno situato in una zona centrale di Varsavia. Un polo polifunzionale caratterizzato da un'architettura futuristica, che ospita eventi, rassegne cinematografiche e laboratori creativi.",
          "coordinate": {
            "latitudine": 41.1152,
            "longitudine": 10.4596
          }
        },
        {
          "nome": "Quartiere degli Artisti di Varsavia (Sito 39)",
          "descrizione_estesa": "Splendido quartiere degli artisti situato in una zona centrale di Varsavia. Un distretto bohémien noto per la forte concentrazione di studi d'arte, gallerie indipendenti, caffè letterari e murales colorati.",
          "coordinate": {
            "latitudine": 41.1196,
            "longitudine": 10.4668
          }
        },
        {
          "nome": "Basilica Storica di Varsavia (Sito 40)",
          "descrizione_estesa": "Splendido basilica storica situato in una zona centrale di Varsavia. Un antico edificio religioso di eccezionale importanza storica e architettonica, meta di pellegrinaggi e scrigno di tesori sacri immensi.",
          "coordinate": {
            "latitudine": 41.1312,
            "longitudine": 10.4439
          }
        }
      ]
    }
  ]
}