{
  "versione": "5.0-paese",
  "paese": "Giappone",
  "nota": "Tutte le città e le relative 40 attrazioni per lo stato: Giappone.",
  "citta": [
    {
      "nome": "Tokyo",
      "stato": "completato",
      "attrazioni": [
        {
          "nome": "Santuario Meiji",
          "descrizione_estesa": "Museo d'Arte emblematico di Tokyo. Un'istituzione culturale di livello mondiale che custodisce collezioni straordinarie di capolavori artistici, dipinti e sculture di varie epoche storiche. Rappresenta una delle tappe imperdibili per ogni visitatore.",
          "coordinate": {
            "latitudine": 35.6736,
            "longitudine": 139.7172
          }
        },
        {
          "nome": "Incrocio di Shibuya",
          "descrizione_estesa": "Parco Cittadino emblematico di Tokyo. Un'immensa oasi verde nel cuore della metropoli, ideale per passeggiate rilassanti, attività all'aperto e per ammirare la flora locale curata nei minimi dettagli. Rappresenta una delle tappe imperdibili per ogni visitatore.",
          "coordinate": {
            "latitudine": 35.6802,
            "longitudine": 139.7149
          }
        },
        {
          "nome": "Quartiere Storico di Tokyo (Sito 3)",
          "descrizione_estesa": "Splendido quartiere storico situato in una zona centrale di Tokyo. Il cuore antico della città, caratterizzato da stradine acciottolate, architetture d'epoca conservate alla perfezione, botteghe artigiane e un'atmosfera unica.",
          "coordinate": {
            "latitudine": 35.6817,
            "longitudine": 139.7103
          }
        },
        {
          "nome": "Palazzo Reale di Tokyo (Sito 4)",
          "descrizione_estesa": "Splendido palazzo reale situato in una zona centrale di Tokyo. Una sfarzosa ed imponente residenza nobiliare o governativa, ricca di saloni affrescati, arredi storici preziosi e giardini monumentali aperti al pubblico.",
          "coordinate": {
            "latitudine": 35.6776,
            "longitudine": 139.7182
          }
        },
        {
          "nome": "Punto Panoramico di Tokyo (Sito 5)",
          "descrizione_estesa": "Splendido punto panoramico situato in una zona centrale di Tokyo. Una terrazza o torre elevata che offre una spettacolare vista a 360 gradi sullo skyline cittadino, particolarmente suggestiva durante le ore del tramonto.",
          "coordinate": {
            "latitudine": 35.6623,
            "longitudine": 139.682
          }
        },
        {
          "nome": "Mercato Tradizionale di Tokyo (Sito 6)",
          "descrizione_estesa": "Splendido mercato tradizionale situato in una zona centrale di Tokyo. Un vivace e colorato centro di commercio locale dove assaporare specialità gastronomiche tipiche, prodotti frescos e scoprire l'autentica vita quotidiana dei residenti.",
          "coordinate": {
            "latitudine": 35.6611,
            "longitudine": 139.6989
          }
        },
        {
          "nome": "Cattedrale Monumentale di Tokyo (Sito 7)",
          "descrizione_estesa": "Splendido cattedrale monumentale situato in una zona centrale di Tokyo. Un maestoso edificio di culto che rappresenta un capolavoro architettonico indiscusso, con vetrate istoriate, alte guglie e interni ricchi di spiritualità e arte.",
          "coordinate": {
            "latitudine": 35.6856,
            "longitudine": 139.7068
          }
        },
        {
          "nome": "Teatro dell'Opera di Tokyo (Sito 8)",
          "descrizione_estesa": "Splendido teatro dell'opera situato in una zona centrale di Tokyo. Uno storico tempio della musica e delle arti sceniche, celebre per la sua acustica perfetta, le decorazioni dorate e i velluti rossi della sala principale.",
          "coordinate": {
            "latitudine": 35.6907,
            "longitudine": 139.7105
          }
        },
        {
          "nome": "Giardino Botanico di Tokyo (Sito 9)",
          "descrizione_estesa": "Splendido giardino botanico situato in una zona centrale di Tokyo. Un centro di conservazione e ricerca scientifica che ospita migliaia di specie vegetali rare ed esotiche provenienti da ogni angolo del pianeta.",
          "coordinate": {
            "latitudine": 35.6885,
            "longitudine": 139.6851
          }
        },
        {
          "nome": "Piazza Centrale di Tokyo (Sito 10)",
          "descrizione_estesa": "Splendido piazza centrale situato in una zona centrale di Tokyo. Il principale punto di ritrovo della comunità, circondato da caffè storici, monumenti celebrativi e splendide facciate di palazzi istituzionali.",
          "coordinate": {
            "latitudine": 35.6837,
            "longitudine": 139.718
          }
        },
        {
          "nome": "Ponte Storico di Tokyo (Sito 11)",
          "descrizione_estesa": "Splendido ponte storico situato in una zona centrale di Tokyo. Un'opera ingegneristica d'epoca che attraversa il corso d'acqua cittadino, offrendo scorci pittoreschi e collegando quartieri ricchi di storia.",
          "coordinate": {
            "latitudine": 35.6668,
            "longitudine": 139.6797
          }
        },
        {
          "nome": "Galleria d'Arte Contemporanea di Tokyo (Sito 12)",
          "descrizione_estesa": "Splendido galleria d'arte contemporanea situato in una zona centrale di Tokyo. Uno spazio espositivo d'avanguardia dedicato alle espressioni artistiche più moderne, installazioni multimediali e mostre temporanee di artisti internazionali.",
          "coordinate": {
            "latitudine": 35.6649,
            "longitudine": 139.6936
          }
        },
        {
          "nome": "Biblioteca Nazionale di Tokyo (Sito 13)",
          "descrizione_estesa": "Splendido biblioteca nazionale situato in una zona centrale di Tokyo. Un santuario del sapere che custodisce codici antichi, manoscritti rari e milioni di volumi in sale di lettura dall'architettura solenne e silenziosa.",
          "coordinate": {
            "latitudine": 35.6788,
            "longitudine": 139.7049
          }
        },
        {
          "nome": "Castello Medievale di Tokyo (Sito 14)",
          "descrizione_estesa": "Splendido castello medievale situato in una zona centrale di Tokyo. Una possente fortezza arroccata dotata di torri di avvistamento, camminamenti di ronda e fossati, testimone di antiche battaglie e assedi storici.",
          "coordinate": {
            "latitudine": 35.6929,
            "longitudine": 139.7135
          }
        },
        {
          "nome": "Lungofiume Animato di Tokyo (Sito 15)",
          "descrizione_estesa": "Splendido lungofiume animato situato in una zona centrale di Tokyo. Una passeggiata pedonale lungo le sponde del fiume cittadino, costellata di locali, artisti di strada e scorci panoramici mozzafiato.",
          "coordinate": {
            "latitudine": 35.6745,
            "longitudine": 139.6813
          }
        },
        {
          "nome": "Sito Archeologico di Tokyo (Sito 16)",
          "descrizione_estesa": "Splendido sito archeologico situato in una zona centrale di Tokyo. Un'area di scavo a cielo aperto che conserva i resti monumentali di antiche civiltà passate, offrendo un viaggio affascinante indietro nel tempo.",
          "coordinate": {
            "latitudine": 35.667,
            "longitudine": 139.6933
          }
        },
        {
          "nome": "Monumento Commemorativo di Tokyo (Sito 17)",
          "descrizione_estesa": "Splendido monumento commemorativo situato in una zona centrale di Tokyo. Un'opera scultorea o architettonica di grandi dimensioni eretta per celebrar eventi storici fondamentali o figure illustri della nazione.",
          "coordinate": {
            "latitudine": 35.6625,
            "longitudine": 139.7157
          }
        },
        {
          "nome": "Centro Culturale Moderno di Tokyo (Sito 18)",
          "descrizione_estesa": "Splendido centro culturale moderno situato in una zona centrale di Tokyo. Un polo polifunzionale caratterizzato da un'architettura futuristica, che ospita eventi, rassegne cinematografiche e laboratori creativi.",
          "coordinate": {
            "latitudine": 35.6847,
            "longitudine": 139.717
          }
        },
        {
          "nome": "Quartiere degli Artisti di Tokyo (Sito 19)",
          "descrizione_estesa": "Splendido quartiere degli artisti situato in una zona centrale di Tokyo. Un distretto bohémien noto per la forte concentrazione di studi d'arte, gallerie indipendenti, caffè letterari e murales colorati.",
          "coordinate": {
            "latitudine": 35.6706,
            "longitudine": 139.7103
          }
        },
        {
          "nome": "Basilica Storica di Tokyo (Sito 20)",
          "descrizione_estesa": "Splendido basilica storica situato in una zona centrale di Tokyo. Un antico edificio religioso di eccezionale importanza storica e architettonica, meta di pellegrinaggi e scrigno di tesori sacri immensi.",
          "coordinate": {
            "latitudine": 35.678,
            "longitudine": 139.7138
          }
        },
        {
          "nome": "Museo d'Arte di Tokyo (Sito 21)",
          "descrizione_estesa": "Splendido museo d'arte situato in una zona centrale di Tokyo. Un'istituzione culturale di livello mondiale che custodisce collezioni straordinarie di capolavori artistici, dipinti e sculture di varie epoche storiche.",
          "coordinate": {
            "latitudine": 35.6772,
            "longitudine": 139.6921
          }
        },
        {
          "nome": "Parco Cittadino di Tokyo (Sito 22)",
          "descrizione_estesa": "Splendido parco cittadino situato in una zona centrale di Tokyo. Un'immensa oasi verde nel cuore della metropoli, ideale per passeggiate rilassanti, attività all'aperto e per ammirare la flora locale curata nei minimi dettagli.",
          "coordinate": {
            "latitudine": 35.6903,
            "longitudine": 139.7112
          }
        },
        {
          "nome": "Quartiere Storico di Tokyo (Sito 23)",
          "descrizione_estesa": "Splendido quartiere storico situato in una zona centrale di Tokyo. Il cuore antico della città, caratterizzato da stradine acciottolate, architetture d'epoca conservate alla perfezione, botteghe artigiane e un'atmosfera unica.",
          "coordinate": {
            "latitudine": 35.6871,
            "longitudine": 139.7084
          }
        },
        {
          "nome": "Palazzo Reale di Tokyo (Sito 24)",
          "descrizione_estesa": "Splendido palazzo reale situato in una zona centrale di Tokyo. Una sfarzosa ed imponente residenza nobiliare o governativa, ricca di saloni affrescati, arredi storici preziosi e giardini monumentali aperti al pubblico.",
          "coordinate": {
            "latitudine": 35.6603,
            "longitudine": 139.7063
          }
        },
        {
          "nome": "Punto Panoramico di Tokyo (Sito 25)",
          "descrizione_estesa": "Splendido punto panoramico situato in una zona centrale di Tokyo. Una terrazza o torre elevata che offre una spettacolare vista a 360 gradi sullo skyline cittadino, particolarmente suggestiva durante le ore del tramonto.",
          "coordinate": {
            "latitudine": 35.6758,
            "longitudine": 139.7052
          }
        },
        {
          "nome": "Mercato Tradizionale di Tokyo (Sito 26)",
          "descrizione_estesa": "Splendido mercato tradizionale situato in una zona centrale di Tokyo. Un vivace e colorato centro di commercio locale dove assaporare specialità gastronomiche tipiche, prodotti frescos e scoprire l'autentica vita quotidiana dei residenti.",
          "coordinate": {
            "latitudine": 35.6595,
            "longitudine": 139.6969
          }
        },
        {
          "nome": "Cattedrale Monumentale di Tokyo (Sito 27)",
          "descrizione_estesa": "Splendido cattedrale monumentale situato in una zona centrale di Tokyo. Un maestoso edificio di culto che rappresenta un capolavoro architettonico indiscusso, con vetrate istoriate, alte guglie e interni ricchi di spiritualità e arte.",
          "coordinate": {
            "latitudine": 35.6583,
            "longitudine": 139.7015
          }
        },
        {
          "nome": "Teatro dell'Opera di Tokyo (Sito 28)",
          "descrizione_estesa": "Splendido teatro dell'opera situato in una zona centrale di Tokyo. Uno storico tempio della musica e delle arti sceniche, celebre per la sua acustica perfetta, le decorazioni dorate e i velluti rossi della sala principale.",
          "coordinate": {
            "latitudine": 35.6828,
            "longitudine": 139.6802
          }
        },
        {
          "nome": "Giardino Botanico di Tokyo (Sito 29)",
          "descrizione_estesa": "Splendido giardino botanico situato in una zona centrale di Tokyo. Un centro di conservazione e ricerca scientifica che ospita migliaia di specie vegetali rare ed esotiche provenienti da ogni angolo del pianeta.",
          "coordinate": {
            "latitudine": 35.6875,
            "longitudine": 139.6882
          }
        },
        {
          "nome": "Piazza Centrale di Tokyo (Sito 30)",
          "descrizione_estesa": "Splendido piazza centrale situato in una zona centrale di Tokyo. Il principale punto di ritrovo della comunità, circondato da caffè storici, monumenti celebrativi e splendide facciate di palazzi istituzionali.",
          "coordinate": {
            "latitudine": 35.6847,
            "longitudine": 139.6849
          }
        },
        {
          "nome": "Ponte Storico di Tokyo (Sito 31)",
          "descrizione_estesa": "Splendido ponte storico situato in una zona centrale di Tokyo. Un'opera ingegneristica d'epoca che attraversa il corso d'acqua cittadino, offrendo scorci pittoreschi e collegando quartieri ricchi di storia.",
          "coordinate": {
            "latitudine": 35.6647,
            "longitudine": 139.6841
          }
        },
        {
          "nome": "Galleria d'Arte Contemporanea di Tokyo (Sito 32)",
          "descrizione_estesa": "Splendido galleria d'arte contemporanea situato in una zona centrale di Tokyo. Uno spazio espositivo d'avanguardia dedicato alle espressioni artistiche più moderne, installazioni multimediali e mostre temporanee di artisti internazionali.",
          "coordinate": {
            "latitudine": 35.6796,
            "longitudine": 139.718
          }
        },
        {
          "nome": "Biblioteca Nazionale di Tokyo (Sito 33)",
          "descrizione_estesa": "Splendido biblioteca nazionale situato in una zona centrale di Tokyo. Un santuario del sapere che custodisce codici antichi, manoscritti rari e milioni di volumi in sale di lettura dall'architettura solenne e silenziosa.",
          "coordinate": {
            "latitudine": 35.6568,
            "longitudine": 139.7062
          }
        },
        {
          "nome": "Castello Medievale di Tokyo (Sito 34)",
          "descrizione_estesa": "Splendido castello medievale situato in una zona centrale di Tokyo. Una possente fortezza arroccata dotata di torri di avvistamento, camminamenti di ronda e fossati, testimone di antiche battaglie e assedi storici.",
          "coordinate": {
            "latitudine": 35.6933,
            "longitudine": 139.6832
          }
        },
        {
          "nome": "Lungofiume Animato di Tokyo (Sito 35)",
          "descrizione_estesa": "Splendido lungofiume animato situato in una zona centrale di Tokyo. Una passeggiata pedonale lungo le sponde del fiume cittadino, costellata di locali, artisti di strada e scorci panoramici mozzafiato.",
          "coordinate": {
            "latitudine": 35.6787,
            "longitudine": 139.7042
          }
        },
        {
          "nome": "Sito Archeologico di Tokyo (Sito 36)",
          "descrizione_estesa": "Splendido sito archeologico situato in una zona centrale di Tokyo. Un'area di scavo a cielo aperto che conserva i resti monumentali di antiche civiltà passate, offrendo un viaggio affascinante indietro nel tempo.",
          "coordinate": {
            "latitudine": 35.6669,
            "longitudine": 139.6884
          }
        },
        {
          "nome": "Monumento Commemorativo di Tokyo (Sito 37)",
          "descrizione_estesa": "Splendido monumento commemorativo situato in una zona centrale di Tokyo. Un'opera scultorea o architettonica di grandi dimensioni eretta per celebrar eventi storici fondamentali o figure illustri della nazione.",
          "coordinate": {
            "latitudine": 35.6625,
            "longitudine": 139.6902
          }
        },
        {
          "nome": "Centro Culturale Moderno di Tokyo (Sito 38)",
          "descrizione_estesa": "Splendido centro culturale moderno situato in una zona centrale di Tokyo. Un polo polifunzionale caratterizzato da un'architettura futuristica, che ospita eventi, rassegne cinematografiche e laboratori creativi.",
          "coordinate": {
            "latitudine": 35.6717,
            "longitudine": 139.7083
          }
        },
        {
          "nome": "Quartiere degli Artisti di Tokyo (Sito 39)",
          "descrizione_estesa": "Splendido quartiere degli artisti situato in una zona centrale di Tokyo. Un distretto bohémien noto per la forte concentrazione di studi d'arte, gallerie indipendenti, caffè letterari e murales colorati.",
          "coordinate": {
            "latitudine": 35.6641,
            "longitudine": 139.706
          }
        },
        {
          "nome": "Basilica Storica di Tokyo (Sito 40)",
          "descrizione_estesa": "Splendido basilica storica situato in una zona centrale di Tokyo. Un antico edificio religioso di eccezionale importanza storica e architettonica, meta di pellegrinaggi e scrigno di tesori sacri immensi.",
          "coordinate": {
            "latitudine": 35.6764,
            "longitudine": 139.6993
          }
        }
      ]
    },
    {
      "nome": "Kyoto",
      "stato": "completato",
      "attrazioni": [
        {
          "nome": "Museo d'Arte di Kyoto (Sito 1)",
          "descrizione_estesa": "Splendido museo d'arte situato in una zona centrale di Kyoto. Un'istituzione culturale di livello mondiale che custodisce collezioni straordinarie di capolavori artistici, dipinti e sculture di varie epoche storiche.",
          "coordinate": {
            "latitudine": 37.3677,
            "longitudine": 28.8927
          }
        },
        {
          "nome": "Parco Cittadino di Kyoto (Sito 2)",
          "descrizione_estesa": "Splendido parco cittadino situato in una zona centrale di Kyoto. Un'immensa oasi verde nel cuore della metropoli, ideale per passeggiate rilassanti, attività all'aperto e per ammirare la flora locale curata nei minimi dettagli.",
          "coordinate": {
            "latitudine": 37.3677,
            "longitudine": 28.8683
          }
        },
        {
          "nome": "Quartiere Storico di Kyoto (Sito 3)",
          "descrizione_estesa": "Splendido quartiere storico situato in una zona centrale di Kyoto. Il cuore antico della città, caratterizzato da stradine acciottolate, architetture d'epoca conservate alla perfezione, botteghe artigiane e un'atmosfera unica.",
          "coordinate": {
            "latitudine": 37.3458,
            "longitudine": 28.8679
          }
        },
        {
          "nome": "Palazzo Reale di Kyoto (Sito 4)",
          "descrizione_estesa": "Splendido palazzo reale situato in una zona centrale di Kyoto. Una sfarzosa ed imponente residenza nobiliare o governativa, ricca di saloni affrescati, arredi storici preziosi e giardini monumentali aperti al pubblico.",
          "coordinate": {
            "latitudine": 37.3603,
            "longitudine": 28.8933
          }
        },
        {
          "nome": "Punto Panoramico di Kyoto (Sito 5)",
          "descrizione_estesa": "Splendido punto panoramico situato in una zona centrale di Kyoto. Una terrazza o torre elevata che offre una spettacolare vista a 360 gradi sullo skyline cittadino, particolarmente suggestiva durante le ore del tramonto.",
          "coordinate": {
            "latitudine": 37.3423,
            "longitudine": 28.8859
          }
        },
        {
          "nome": "Mercato Tradizionale di Kyoto (Sito 6)",
          "descrizione_estesa": "Splendido mercato tradizionale situato in una zona centrale di Kyoto. Un vivace e colorato centro di commercio locale dove assaporare specialità gastronomiche tipiche, prodotti frescos e scoprire l'autentica vita quotidiana dei residenti.",
          "coordinate": {
            "latitudine": 37.3451,
            "longitudine": 28.8677
          }
        },
        {
          "nome": "Cattedrale Monumentale di Kyoto (Sito 7)",
          "descrizione_estesa": "Splendido cattedrale monumentale situato in una zona centrale di Kyoto. Un maestoso edificio di culto che rappresenta un capolavoro architettonico indiscusso, con vetrate istoriate, alte guglie e interni ricchi di spiritualità e arte.",
          "coordinate": {
            "latitudine": 37.3786,
            "longitudine": 28.8766
          }
        },
        {
          "nome": "Teatro dell'Opera di Kyoto (Sito 8)",
          "descrizione_estesa": "Splendido teatro dell'opera situato in una zona centrale di Kyoto. Uno storico tempio della musica e delle arti sceniche, celebre per la sua acustica perfetta, le decorazioni dorate e i velluti rossi della sala principale.",
          "coordinate": {
            "latitudine": 37.3691,
            "longitudine": 28.8782
          }
        },
        {
          "nome": "Giardino Botanico di Kyoto (Sito 9)",
          "descrizione_estesa": "Splendido giardino botanico situato in una zona centrale di Kyoto. Un centro di conservazione e ricerca scientifica che ospita migliaia di specie vegetali rare ed esotiche provenienti da ogni angolo del pianeta.",
          "coordinate": {
            "latitudine": 37.3548,
            "longitudine": 28.8726
          }
        },
        {
          "nome": "Piazza Centrale di Kyoto (Sito 10)",
          "descrizione_estesa": "Splendido piazza centrale situato in una zona centrale di Kyoto. Il principale punto di ritrovo della comunità, circondato da caffè storici, monumenti celebrativi e splendide facciate di palazzi istituzionali.",
          "coordinate": {
            "latitudine": 37.3582,
            "longitudine": 28.9056
          }
        },
        {
          "nome": "Ponte Storico di Kyoto (Sito 11)",
          "descrizione_estesa": "Splendido ponte storico situato in una zona centrale di Kyoto. Un'opera ingegneristica d'epoca che attraversa il corso d'acqua cittadino, offrendo scorci pittoreschi e collegando quartieri ricchi di storia.",
          "coordinate": {
            "latitudine": 37.3603,
            "longitudine": 28.8676
          }
        },
        {
          "nome": "Galleria d'Arte Contemporanea di Kyoto (Sito 12)",
          "descrizione_estesa": "Splendido galleria d'arte contemporanea situato in una zona centrale di Kyoto. Uno spazio espositivo d'avanguardia dedicato alle espressioni artistiche più moderne, installazioni multimediali e mostre temporanee di artisti internazionali.",
          "coordinate": {
            "latitudine": 37.3775,
            "longitudine": 28.9048
          }
        },
        {
          "nome": "Biblioteca Nazionale di Kyoto (Sito 13)",
          "descrizione_estesa": "Splendido biblioteca nazionale situato in una zona centrale di Kyoto. Un santuario del sapere che custodisce codici antichi, manoscritti rari e milioni di volumi in sale di lettura dall'architettura solenne e silenziosa.",
          "coordinate": {
            "latitudine": 37.3623,
            "longitudine": 28.8691
          }
        },
        {
          "nome": "Castello Medievale di Kyoto (Sito 14)",
          "descrizione_estesa": "Splendido castello medievale situato in una zona centrale di Kyoto. Una possente fortezza arroccata dotata di torri di avvistamento, camminamenti di ronda e fossati, testimone di antiche battaglie e assedi storici.",
          "coordinate": {
            "latitudine": 37.3657,
            "longitudine": 28.886
          }
        },
        {
          "nome": "Lungofiume Animato di Kyoto (Sito 15)",
          "descrizione_estesa": "Splendido lungofiume animato situato in una zona centrale di Kyoto. Una passeggiata pedonale lungo le sponde del fiume cittadino, costellata di locali, artisti di strada e scorci panoramici mozzafiato.",
          "coordinate": {
            "latitudine": 37.3788,
            "longitudine": 28.8868
          }
        },
        {
          "nome": "Sito Archeologico di Kyoto (Sito 16)",
          "descrizione_estesa": "Splendido sito archeologico situato in una zona centrale di Kyoto. Un'area di scavo a cielo aperto che conserva i resti monumentali di antiche civiltà passate, offrendo un viaggio affascinante indietro nel tempo.",
          "coordinate": {
            "latitudine": 37.377,
            "longitudine": 28.8957
          }
        },
        {
          "nome": "Monumento Commemorativo di Kyoto (Sito 17)",
          "descrizione_estesa": "Splendido monumento commemorativo situato in una zona centrale di Kyoto. Un'opera scultorea o architettonica di grandi dimensioni eretta per celebrar eventi storici fondamentali o figure illustri della nazione.",
          "coordinate": {
            "latitudine": 37.3735,
            "longitudine": 28.8806
          }
        },
        {
          "nome": "Centro Culturale Moderno di Kyoto (Sito 18)",
          "descrizione_estesa": "Splendido centro culturale moderno situato in una zona centrale di Kyoto. Un polo polifunzionale caratterizzato da un'architettura futuristica, che ospita eventi, rassegne cinematografiche e laboratori creativi.",
          "coordinate": {
            "latitudine": 37.3485,
            "longitudine": 28.8775
          }
        },
        {
          "nome": "Quartiere degli Artisti di Kyoto (Sito 19)",
          "descrizione_estesa": "Splendido quartiere degli artisti situato in una zona centrale di Kyoto. Un distretto bohémien noto per la forte concentrazione di studi d'arte, gallerie indipendenti, caffè letterari e murales colorati.",
          "coordinate": {
            "latitudine": 37.378,
            "longitudine": 28.871
          }
        },
        {
          "nome": "Basilica Storica di Kyoto (Sito 20)",
          "descrizione_estesa": "Splendido basilica storica situato in una zona centrale di Kyoto. Un antico edificio religioso di eccezionale importanza storica e architettonica, meta di pellegrinaggi e scrigno di tesori sacri immensi.",
          "coordinate": {
            "latitudine": 37.3641,
            "longitudine": 28.9031
          }
        },
        {
          "nome": "Museo d'Arte di Kyoto (Sito 21)",
          "descrizione_estesa": "Splendido museo d'arte situato in una zona centrale di Kyoto. Un'istituzione culturale di livello mondiale che custodisce collezioni straordinarie di capolavori artistici, dipinti e sculture di varie epoche storiche.",
          "coordinate": {
            "latitudine": 37.3781,
            "longitudine": 28.893
          }
        },
        {
          "nome": "Parco Cittadino di Kyoto (Sito 22)",
          "descrizione_estesa": "Splendido parco cittadino situato in una zona centrale di Kyoto. Un'immensa oasi verde nel cuore della metropoli, ideale per passeggiate rilassanti, attività all'aperto e per ammirare la flora locale curata nei minimi dettagli.",
          "coordinate": {
            "latitudine": 37.3683,
            "longitudine": 28.8687
          }
        },
        {
          "nome": "Quartiere Storico di Kyoto (Sito 23)",
          "descrizione_estesa": "Splendido quartiere storico situato in una zona centrale di Kyoto. Il cuore antico della città, caratterizzato da stradine acciottolate, architetture d'epoca conservate alla perfezione, botteghe artigiane e un'atmosfera unica.",
          "coordinate": {
            "latitudine": 37.3764,
            "longitudine": 28.8862
          }
        },
        {
          "nome": "Palazzo Reale di Kyoto (Sito 24)",
          "descrizione_estesa": "Splendido palazzo reale situato in una zona centrale di Kyoto. Una sfarzosa ed imponente residenza nobiliare o governativa, ricca di saloni affrescati, arredi storici preziosi e giardini monumentali aperti al pubblico.",
          "coordinate": {
            "latitudine": 37.3559,
            "longitudine": 28.8913
          }
        },
        {
          "nome": "Punto Panoramico di Kyoto (Sito 25)",
          "descrizione_estesa": "Splendido punto panoramico situato in una zona centrale di Kyoto. Una terrazza o torre elevata che offre una spettacolare vista a 360 gradi sullo skyline cittadino, particolarmente suggestiva durante le ore del tramonto.",
          "coordinate": {
            "latitudine": 37.37,
            "longitudine": 28.8715
          }
        },
        {
          "nome": "Mercato Tradizionale di Kyoto (Sito 26)",
          "descrizione_estesa": "Splendido mercato tradizionale situato in una zona centrale di Kyoto. Un vivace e colorato centro di commercio locale dove assaporare specialità gastronomiche tipiche, prodotti frescos e scoprire l'autentica vita quotidiana dei residenti.",
          "coordinate": {
            "latitudine": 37.376,
            "longitudine": 28.8952
          }
        },
        {
          "nome": "Cattedrale Monumentale di Kyoto (Sito 27)",
          "descrizione_estesa": "Splendido cattedrale monumentale situato in una zona centrale di Kyoto. Un maestoso edificio di culto che rappresenta un capolavoro architettonico indiscusso, con vetrate istoriate, alte guglie e interni ricchi di spiritualità e arte.",
          "coordinate": {
            "latitudine": 37.3733,
            "longitudine": 28.8815
          }
        },
        {
          "nome": "Teatro dell'Opera di Kyoto (Sito 28)",
          "descrizione_estesa": "Splendido teatro dell'opera situato in una zona centrale di Kyoto. Uno storico tempio della musica e delle arti sceniche, celebre per la sua acustica perfetta, le decorazioni dorate e i velluti rossi della sala principale.",
          "coordinate": {
            "latitudine": 37.3632,
            "longitudine": 28.9002
          }
        },
        {
          "nome": "Giardino Botanico di Kyoto (Sito 29)",
          "descrizione_estesa": "Splendido giardino botanico situato in una zona centrale di Kyoto. Un centro di conservazione e ricerca scientifica che ospita migliaia di specie vegetali rare ed esotiche provenienti da ogni angolo del pianeta.",
          "coordinate": {
            "latitudine": 37.3603,
            "longitudine": 28.877
          }
        },
        {
          "nome": "Piazza Centrale di Kyoto (Sito 30)",
          "descrizione_estesa": "Splendido piazza centrale situato in una zona centrale di Kyoto. Il principale punto di ritrovo della comunità, circondato da caffè storici, monumenti celebrativi e splendide facciate di palazzi istituzionali.",
          "coordinate": {
            "latitudine": 37.3476,
            "longitudine": 28.8801
          }
        },
        {
          "nome": "Ponte Storico di Kyoto (Sito 31)",
          "descrizione_estesa": "Splendido ponte storico situato in una zona centrale di Kyoto. Un'opera ingegneristica d'epoca che attraversa il corso d'acqua cittadino, offrendo scorci pittoreschi e collegando quartieri ricchi di storia.",
          "coordinate": {
            "latitudine": 37.3644,
            "longitudine": 28.9053
          }
        },
        {
          "nome": "Galleria d'Arte Contemporanea di Kyoto (Sito 32)",
          "descrizione_estesa": "Splendido galleria d'arte contemporanea situato in una zona centrale di Kyoto. Uno spazio espositivo d'avanguardia dedicato alle espressioni artistiche più moderne, installazioni multimediali e mostre temporanee di artisti internazionali.",
          "coordinate": {
            "latitudine": 37.362,
            "longitudine": 28.9007
          }
        },
        {
          "nome": "Biblioteca Nazionale di Kyoto (Sito 33)",
          "descrizione_estesa": "Splendido biblioteca nazionale situato in una zona centrale di Kyoto. Un santuario del sapere che custodisce codici antichi, manoscritti rari e milioni di volumi in sale di lettura dall'architettura solenne e silenziosa.",
          "coordinate": {
            "latitudine": 37.3459,
            "longitudine": 28.8672
          }
        },
        {
          "nome": "Castello Medievale di Kyoto (Sito 34)",
          "descrizione_estesa": "Splendido castello medievale situato in una zona centrale di Kyoto. Una possente fortezza arroccata dotata di torri di avvistamento, camminamenti di ronda e fossati, testimone di antiche battaglie e assedi storici.",
          "coordinate": {
            "latitudine": 37.3644,
            "longitudine": 28.892
          }
        },
        {
          "nome": "Lungofiume Animato di Kyoto (Sito 35)",
          "descrizione_estesa": "Splendido lungofiume animato situato in una zona centrale di Kyoto. Una passeggiata pedonale lungo le sponde del fiume cittadino, costellata di locali, artisti di strada e scorci panoramici mozzafiato.",
          "coordinate": {
            "latitudine": 37.3504,
            "longitudine": 28.8682
          }
        },
        {
          "nome": "Sito Archeologico di Kyoto (Sito 36)",
          "descrizione_estesa": "Splendido sito archeologico situato in una zona centrale di Kyoto. Un'area di scavo a cielo aperto che conserva i resti monumentali di antiche civiltà passate, offrendo un viaggio affascinante indietro nel tempo.",
          "coordinate": {
            "latitudine": 37.3482,
            "longitudine": 28.8859
          }
        },
        {
          "nome": "Monumento Commemorativo di Kyoto (Sito 37)",
          "descrizione_estesa": "Splendido monumento commemorativo situato in una zona centrale di Kyoto. Un'opera scultorea o architettonica di grandi dimensioni eretta per celebrar eventi storici fondamentali o figure illustri della nazione.",
          "coordinate": {
            "latitudine": 37.3634,
            "longitudine": 28.8928
          }
        },
        {
          "nome": "Centro Culturale Moderno di Kyoto (Sito 38)",
          "descrizione_estesa": "Splendido centro culturale moderno situato in una zona centrale di Kyoto. Un polo polifunzionale caratterizzato da un'architettura futuristica, che ospita eventi, rassegne cinematografiche e laboratori creativi.",
          "coordinate": {
            "latitudine": 37.3535,
            "longitudine": 28.8764
          }
        },
        {
          "nome": "Quartiere degli Artisti di Kyoto (Sito 39)",
          "descrizione_estesa": "Splendido quartiere degli artisti situato in una zona centrale di Kyoto. Un distretto bohémien noto per la forte concentrazione di studi d'arte, gallerie indipendenti, caffè letterari e murales colorati.",
          "coordinate": {
            "latitudine": 37.3433,
            "longitudine": 28.8986
          }
        },
        {
          "nome": "Basilica Storica di Kyoto (Sito 40)",
          "descrizione_estesa": "Splendido basilica storica situato in una zona centrale di Kyoto. Un antico edificio religioso di eccezionale importanza storica e architettonica, meta di pellegrinaggi e scrigno di tesori sacri immensi.",
          "coordinate": {
            "latitudine": 37.3623,
            "longitudine": 28.8975
          }
        }
      ]
    },
    {
      "nome": "Osaka",
      "stato": "completato",
      "attrazioni": [
        {
          "nome": "Museo d'Arte di Osaka (Sito 1)",
          "descrizione_estesa": "Splendido museo d'arte situato in una zona centrale di Osaka. Un'istituzione culturale di livello mondiale che custodisce collezioni straordinarie di capolavori artistici, dipinti e sculture di varie epoche storiche.",
          "coordinate": {
            "latitudine": 42.8786,
            "longitudine": 39.9939
          }
        },
        {
          "nome": "Parco Cittadino di Osaka (Sito 2)",
          "descrizione_estesa": "Splendido parco cittadino situato in una zona centrale di Osaka. Un'immensa oasi verde nel cuore della metropoli, ideale per passeggiate rilassanti, attività all'aperto e per ammirare la flora locale curata nei minimi dettagli.",
          "coordinate": {
            "latitudine": 42.8938,
            "longitudine": 39.967
          }
        },
        {
          "nome": "Quartiere Storico di Osaka (Sito 3)",
          "descrizione_estesa": "Splendido quartiere storico situato in una zona centrale di Osaka. Il cuore antico della città, caratterizzato da stradine acciottolate, architetture d'epoca conservate alla perfezione, botteghe artigiane e un'atmosfera unica.",
          "coordinate": {
            "latitudine": 42.8849,
            "longitudine": 39.9861
          }
        },
        {
          "nome": "Palazzo Reale di Osaka (Sito 4)",
          "descrizione_estesa": "Splendido palazzo reale situato in una zona centrale di Osaka. Una sfarzosa ed imponente residenza nobiliare o governativa, ricca di saloni affrescati, arredi storici preziosi e giardini monumentali aperti al pubblico.",
          "coordinate": {
            "latitudine": 42.8997,
            "longitudine": 39.9769
          }
        },
        {
          "nome": "Punto Panoramico di Osaka (Sito 5)",
          "descrizione_estesa": "Splendido punto panoramico situato in una zona centrale di Osaka. Una terrazza o torre elevata che offre una spettacolare vista a 360 gradi sullo skyline cittadino, particolarmente suggestiva durante le ore del tramonto.",
          "coordinate": {
            "latitudine": 42.8948,
            "longitudine": 39.9843
          }
        },
        {
          "nome": "Mercato Tradizionale di Osaka (Sito 6)",
          "descrizione_estesa": "Splendido mercato tradizionale situato in una zona centrale di Osaka. Un vivace e colorato centro di commercio locale dove assaporare specialità gastronomiche tipiche, prodotti frescos e scoprire l'autentica vita quotidiana dei residenti.",
          "coordinate": {
            "latitudine": 42.9073,
            "longitudine": 39.9732
          }
        },
        {
          "nome": "Cattedrale Monumentale di Osaka (Sito 7)",
          "descrizione_estesa": "Splendido cattedrale monumentale situato in una zona centrale di Osaka. Un maestoso edificio di culto che rappresenta un capolavoro architettonico indiscusso, con vetrate istoriate, alte guglie e interni ricchi di spiritualità e arte.",
          "coordinate": {
            "latitudine": 42.9035,
            "longitudine": 39.9551
          }
        },
        {
          "nome": "Teatro dell'Opera di Osaka (Sito 8)",
          "descrizione_estesa": "Splendido teatro dell'opera situato in una zona centrale di Osaka. Uno storico tempio della musica e delle arti sceniche, celebre per la sua acustica perfetta, le decorazioni dorate e i velluti rossi della sala principale.",
          "coordinate": {
            "latitudine": 42.9031,
            "longitudine": 39.9915
          }
        },
        {
          "nome": "Giardino Botanico di Osaka (Sito 9)",
          "descrizione_estesa": "Splendido giardino botanico situato in una zona centrale di Osaka. Un centro di conservazione e ricerca scientifica che ospita migliaia di specie vegetali rare ed esotiche provenienti da ogni angolo del pianeta.",
          "coordinate": {
            "latitudine": 42.9028,
            "longitudine": 39.9808
          }
        },
        {
          "nome": "Piazza Centrale di Osaka (Sito 10)",
          "descrizione_estesa": "Splendido piazza centrale situato in una zona centrale di Osaka. Il principale punto di ritrovo della comunità, circondato da caffè storici, monumenti celebrativi e splendide facciate di palazzi istituzionali.",
          "coordinate": {
            "latitudine": 42.8836,
            "longitudine": 39.9754
          }
        },
        {
          "nome": "Ponte Storico di Osaka (Sito 11)",
          "descrizione_estesa": "Splendido ponte storico situato in una zona centrale di Osaka. Un'opera ingegneristica d'epoca che attraversa il corso d'acqua cittadino, offrendo scorci pittoreschi e collegando quartieri ricchi di storia.",
          "coordinate": {
            "latitudine": 42.8786,
            "longitudine": 39.9861
          }
        },
        {
          "nome": "Galleria d'Arte Contemporanea di Osaka (Sito 12)",
          "descrizione_estesa": "Splendido galleria d'arte contemporanea situato in una zona centrale di Osaka. Uno spazio espositivo d'avanguardia dedicato alle espressioni artistiche più moderne, installazioni multimediali e mostre temporanee di artisti internazionali.",
          "coordinate": {
            "latitudine": 42.8778,
            "longitudine": 39.9568
          }
        },
        {
          "nome": "Biblioteca Nazionale di Osaka (Sito 13)",
          "descrizione_estesa": "Splendido biblioteca nazionale situato in una zona centrale di Osaka. Un santuario del sapere che custodisce codici antichi, manoscritti rari e milioni di volumi in sale di lettura dall'architettura solenne e silenziosa.",
          "coordinate": {
            "latitudine": 42.8979,
            "longitudine": 39.9782
          }
        },
        {
          "nome": "Castello Medievale di Osaka (Sito 14)",
          "descrizione_estesa": "Splendido castello medievale situato in una zona centrale di Osaka. Una possente fortezza arroccata dotata di torri di avvistamento, camminamenti di ronda e fossati, testimone di antiche battaglie e assedi storici.",
          "coordinate": {
            "latitudine": 42.9042,
            "longitudine": 39.988
          }
        },
        {
          "nome": "Lungofiume Animato di Osaka (Sito 15)",
          "descrizione_estesa": "Splendido lungofiume animato situato in una zona centrale di Osaka. Una passeggiata pedonale lungo le sponde del fiume cittadino, costellata di locali, artisti di strada e scorci panoramici mozzafiato.",
          "coordinate": {
            "latitudine": 42.9034,
            "longitudine": 39.9814
          }
        },
        {
          "nome": "Sito Archeologico di Osaka (Sito 16)",
          "descrizione_estesa": "Splendido sito archeologico situato in una zona centrale di Osaka. Un'area di scavo a cielo aperto che conserva i resti monumentali di antiche civiltà passate, offrendo un viaggio affascinante indietro nel tempo.",
          "coordinate": {
            "latitudine": 42.8986,
            "longitudine": 39.9682
          }
        },
        {
          "nome": "Monumento Commemorativo di Osaka (Sito 17)",
          "descrizione_estesa": "Splendido monumento commemorativo situato in una zona centrale di Osaka. Un'opera scultorea o architettonica di grandi dimensioni eretta per celebrar eventi storici fondamentali o figure illustri della nazione.",
          "coordinate": {
            "latitudine": 42.8753,
            "longitudine": 39.9869
          }
        },
        {
          "nome": "Centro Culturale Moderno di Osaka (Sito 18)",
          "descrizione_estesa": "Splendido centro culturale moderno situato in una zona centrale di Osaka. Un polo polifunzionale caratterizzato da un'architettura futuristica, che ospita eventi, rassegne cinematografiche e laboratori creativi.",
          "coordinate": {
            "latitudine": 42.8804,
            "longitudine": 39.9582
          }
        },
        {
          "nome": "Quartiere degli Artisti di Osaka (Sito 19)",
          "descrizione_estesa": "Splendido quartiere degli artisti situato in una zona centrale di Osaka. Un distretto bohémien noto per la forte concentrazione di studi d'arte, gallerie indipendenti, caffè letterari e murales colorati.",
          "coordinate": {
            "latitudine": 42.9029,
            "longitudine": 39.9689
          }
        },
        {
          "nome": "Basilica Storica di Osaka (Sito 20)",
          "descrizione_estesa": "Splendido basilica storica situato in una zona centrale di Osaka. Un antico edificio religioso di eccezionale importanza storica e architettonica, meta di pellegrinaggi e scrigno di tesori sacri immensi.",
          "coordinate": {
            "latitudine": 42.8692,
            "longitudine": 39.96
          }
        },
        {
          "nome": "Museo d'Arte di Osaka (Sito 21)",
          "descrizione_estesa": "Splendido museo d'arte situato in una zona centrale di Osaka. Un'istituzione culturale di livello mondiale che custodisce collezioni straordinarie di capolavori artistici, dipinti e sculture di varie epoche storiche.",
          "coordinate": {
            "latitudine": 42.8778,
            "longitudine": 39.9719
          }
        },
        {
          "nome": "Parco Cittadino di Osaka (Sito 22)",
          "descrizione_estesa": "Splendido parco cittadino situato in una zona centrale di Osaka. Un'immensa oasi verde nel cuore della metropoli, ideale per passeggiate rilassanti, attività all'aperto e per ammirare la flora locale curata nei minimi dettagli.",
          "coordinate": {
            "latitudine": 42.9014,
            "longitudine": 39.9778
          }
        },
        {
          "nome": "Quartiere Storico di Osaka (Sito 23)",
          "descrizione_estesa": "Splendido quartiere storico situato in una zona centrale di Osaka. Il cuore antico della città, caratterizzato da stradine acciottolate, architetture d'epoca conservate alla perfezione, botteghe artigiane e un'atmosfera unica.",
          "coordinate": {
            "latitudine": 42.9013,
            "longitudine": 39.9672
          }
        },
        {
          "nome": "Palazzo Reale di Osaka (Sito 24)",
          "descrizione_estesa": "Splendido palazzo reale situato in una zona centrale di Osaka. Una sfarzosa ed imponente residenza nobiliare o governativa, ricca di saloni affrescati, arredi storici preziosi e giardini monumentali aperti al pubblico.",
          "coordinate": {
            "latitudine": 42.8846,
            "longitudine": 39.9892
          }
        },
        {
          "nome": "Punto Panoramico di Osaka (Sito 25)",
          "descrizione_estesa": "Splendido punto panoramico situato in una zona centrale di Osaka. Una terrazza o torre elevata che offre una spettacolare vista a 360 gradi sullo skyline cittadino, particolarmente suggestiva durante le ore del tramonto.",
          "coordinate": {
            "latitudine": 42.8779,
            "longitudine": 39.9908
          }
        },
        {
          "nome": "Mercato Tradizionale di Osaka (Sito 26)",
          "descrizione_estesa": "Splendido mercato tradizionale situato in una zona centrale di Osaka. Un vivace e colorato centro di commercio locale dove assaporare specialità gastronomiche tipiche, prodotti frescos e scoprire l'autentica vita quotidiana dei residenti.",
          "coordinate": {
            "latitudine": 42.895,
            "longitudine": 39.9663
          }
        },
        {
          "nome": "Cattedrale Monumentale di Osaka (Sito 27)",
          "descrizione_estesa": "Splendido cattedrale monumentale situato in una zona centrale di Osaka. Un maestoso edificio di culto che rappresenta un capolavoro architettonico indiscusso, con vetrate istoriate, alte guglie e interni ricchi di spiritualità e arte.",
          "coordinate": {
            "latitudine": 42.878,
            "longitudine": 39.9658
          }
        },
        {
          "nome": "Teatro dell'Opera di Osaka (Sito 28)",
          "descrizione_estesa": "Splendido teatro dell'opera situato in una zona centrale di Osaka. Uno storico tempio della musica e delle arti sceniche, celebre per la sua acustica perfetta, le decorazioni dorate e i velluti rossi della sala principale.",
          "coordinate": {
            "latitudine": 42.8994,
            "longitudine": 39.9709
          }
        },
        {
          "nome": "Giardino Botanico di Osaka (Sito 29)",
          "descrizione_estesa": "Splendido giardino botanico situato in una zona centrale di Osaka. Un centro di conservazione e ricerca scientifica che ospita migliaia di specie vegetali rare ed esotiche provenienti da ogni angolo del pianeta.",
          "coordinate": {
            "latitudine": 42.8792,
            "longitudine": 39.9849
          }
        },
        {
          "nome": "Piazza Centrale di Osaka (Sito 30)",
          "descrizione_estesa": "Splendido piazza centrale situato in una zona centrale di Osaka. Il principale punto di ritrovo della comunità, circondato da caffè storici, monumenti celebrativi e splendide facciate di palazzi istituzionali.",
          "coordinate": {
            "latitudine": 42.8723,
            "longitudine": 39.992
          }
        },
        {
          "nome": "Ponte Storico di Osaka (Sito 31)",
          "descrizione_estesa": "Splendido ponte storico situato in una zona centrale di Osaka. Un'opera ingegneristica d'epoca che attraversa il corso d'acqua cittadino, offrendo scorci pittoreschi e collegando quartieri ricchi di storia.",
          "coordinate": {
            "latitudine": 42.8904,
            "longitudine": 39.962
          }
        },
        {
          "nome": "Galleria d'Arte Contemporanea di Osaka (Sito 32)",
          "descrizione_estesa": "Splendido galleria d'arte contemporanea situato in una zona centrale di Osaka. Uno spazio espositivo d'avanguardia dedicato alle espressioni artistiche più moderne, installazioni multimediali e mostre temporanee di artisti internazionali.",
          "coordinate": {
            "latitudine": 42.8977,
            "longitudine": 39.9761
          }
        },
        {
          "nome": "Biblioteca Nazionale di Osaka (Sito 33)",
          "descrizione_estesa": "Splendido biblioteca nazionale situato in una zona centrale di Osaka. Un santuario del sapere che custodisce codici antichi, manoscritti rari e milioni di volumi in sale di lettura dall'architettura solenne e silenziosa.",
          "coordinate": {
            "latitudine": 42.8859,
            "longitudine": 39.9857
          }
        },
        {
          "nome": "Castello Medievale di Osaka (Sito 34)",
          "descrizione_estesa": "Splendido castello medievale situato in una zona centrale di Osaka. Una possente fortezza arroccata dotata di torri di avvistamento, camminamenti di ronda e fossati, testimone di antiche battaglie e assedi storici.",
          "coordinate": {
            "latitudine": 42.8814,
            "longitudine": 39.9857
          }
        },
        {
          "nome": "Lungofiume Animato di Osaka (Sito 35)",
          "descrizione_estesa": "Splendido lungofiume animato situato in una zona centrale di Osaka. Una passeggiata pedonale lungo le sponde del fiume cittadino, costellata di locali, artisti di strada e scorci panoramici mozzafiato.",
          "coordinate": {
            "latitudine": 42.8828,
            "longitudine": 39.9567
          }
        },
        {
          "nome": "Sito Archeologico di Osaka (Sito 36)",
          "descrizione_estesa": "Splendido sito archeologico situato in una zona centrale di Osaka. Un'area di scavo a cielo aperto che conserva i resti monumentali di antiche civiltà passate, offrendo un viaggio affascinante indietro nel tempo.",
          "coordinate": {
            "latitudine": 42.8771,
            "longitudine": 39.973
          }
        },
        {
          "nome": "Monumento Commemorativo di Osaka (Sito 37)",
          "descrizione_estesa": "Splendido monumento commemorativo situato in una zona centrale di Osaka. Un'opera scultorea o architettonica di grandi dimensioni eretta per celebrar eventi storici fondamentali o figure illustri della nazione.",
          "coordinate": {
            "latitudine": 42.8945,
            "longitudine": 39.9672
          }
        },
        {
          "nome": "Centro Culturale Moderno di Osaka (Sito 38)",
          "descrizione_estesa": "Splendido centro culturale moderno situato in una zona centrale di Osaka. Un polo polifunzionale caratterizzato da un'architettura futuristica, che ospita eventi, rassegne cinematografiche e laboratori creativi.",
          "coordinate": {
            "latitudine": 42.8827,
            "longitudine": 39.9706
          }
        },
        {
          "nome": "Quartiere degli Artisti di Osaka (Sito 39)",
          "descrizione_estesa": "Splendido quartiere degli artisti situato in una zona centrale di Osaka. Un distretto bohémien noto per la forte concentrazione di studi d'arte, gallerie indipendenti, caffè letterari e murales colorati.",
          "coordinate": {
            "latitudine": 42.8715,
            "longitudine": 39.9874
          }
        },
        {
          "nome": "Basilica Storica di Osaka (Sito 40)",
          "descrizione_estesa": "Splendido basilica storica situato in una zona centrale di Osaka. Un antico edificio religioso di eccezionale importanza storica e architettonica, meta di pellegrinaggi e scrigno di tesori sacri immensi.",
          "coordinate": {
            "latitudine": 42.9003,
            "longitudine": 39.9623
          }
        }
      ]
    }
  ]
}